[
  {"city":"大连市","province":"辽宁","group":"渤海/黄海北部","lat":38.914, "lon":121.614, "notes":"大连近岸", "geo_prior":1.08},
  {"city":"秦皇岛","province":"河北","group":"渤海/黄海北部","lat":39.935, "lon":119.600, "notes":"北戴河近岸", "geo_prior":1.06},
  {"city":"天津市","province":"天津","group":"渤海/黄海北部","lat":39.085, "lon":117.200, "notes":"天津近海", "geo_prior":1.09},
  {"city":"东营市","province":"山东","group":"渤海/黄海北部","lat":37.434, "lon":118.674, "notes":"黄河三角洲近岸", "geo_prior":1.12},
  {"city":"青岛市","province":"山东","group":"黄海","lat":36.067, "lon":120.382, "notes":"青岛近岸", "geo_prior":1.10},
  {"city":"威海市","province":"山东","group":"黄海","lat":37.513, "lon":122.120, "notes":"威海近岸", "geo_prior":1.08},
  {"city":"舟山市","province":"浙江","group":"东海","lat":29.985, "lon":122.207, "notes":"舟山群岛", "geo_prior":1.16},
  {"city":"台州市","province":"浙江","group":"东海","lat":28.656, "lon":121.420, "notes":"台州沿海", "geo_prior":1.12},
  {"city":"温州市","province":"浙江","group":"东海","lat":27.994, "lon":120.699, "notes":"温州沿海", "geo_prior":1.10},
  {"city":"宁波市","province":"浙江","group":"东海","lat":29.868, "lon":121.549, "notes":"宁波沿海", "geo_prior":1.12},
  {"city":"平潭县","province":"福建","group":"台湾海峡","lat":25.501, "lon":119.796, "notes":"平潭岛", "geo_prior":1.18},
  {"city":"宁德市","province":"福建","group":"东海/台湾海峡","lat":26.664, "lon":119.547, "notes":"闽东沿海", "geo_prior":1.15},
  {"city":"厦门市","province":"福建","group":"台湾海峡","lat":24.479, "lon":118.089, "notes":"厦门近岸", "geo_prior":1.20},
  {"city":"泉州市","province":"福建","group":"台湾海峡","lat":24.873, "lon":118.675, "notes":"泉州沿海", "geo_prior":1.17},
  {"city":"深圳市","province":"广东","group":"南海北部","lat":22.543, "lon":114.058, "notes":"深圳近岸", "geo_prior":1.22},
  {"city":"珠海市","province":"广东","group":"南海北部","lat":22.270, "lon":113.576, "notes":"珠海近岸", "geo_prior":1.24},
  {"city":"惠州市","province":"广东","group":"南海北部","lat":23.111, "lon":114.415, "notes":"惠州近岸", "geo_prior":1.22},
  {"city":"汕头市","province":"广东","group":"南海北部","lat":23.354, "lon":116.681, "notes":"汕头近岸", "geo_prior":1.19},
  {"city":"陵水县","province":"海南","group":"南海","lat":18.506, "lon":110.036, "notes":"陵水近岸", "geo_prior":1.16},
  {"city":"三亚市","province":"海南","group":"南海","lat":18.252, "lon":109.511, "notes":"三亚近岸", "geo_prior":1.14}
]
